[
  {
    "id": 788355422,
    "name": "Ветаптека ооо Фармакея",
    "address": "Привокзальная площадь",
    "phone": "+7 812 4519541",
    "lat": 59.7229162,
    "lon": 30.4265928
  },
  {
    "id": 791552999,
    "name": "Синий крест",
    "address": "",
    "phone": "+7 812 3557885",
    "lat": 59.9334241,
    "lon": 30.2384676
  },
  {
    "id": 863647826,
    "name": "Домашний любимец",
    "address": "Церковная улица",
    "phone": "+7 812 4700782",
    "lat": 59.7269882,
    "lon": 30.4070465
  },
  {
    "id": 935190355,
    "name": "Три кота",
    "address": "",
    "phone": "+7 812 4442505",
    "lat": 59.9206686,
    "lon": 30.4196457
  },
  {
    "id": 999069340,
    "name": "Ветцентр",
    "address": "",
    "phone": "",
    "lat": 59.8525251,
    "lon": 30.230325
  },
  {
    "id": 1025460410,
    "name": "ВетКлиника",
    "address": "",
    "phone": "+7 812 4120652",
    "lat": 59.9011416,
    "lon": 30.4271683
  },
  {
    "id": 1091416219,
    "name": "Ветеринарная станция",
    "address": "",
    "phone": "",
    "lat": 60.0812362,
    "lon": 29.9552873
  },
  {
    "id": 1226929697,
    "name": "Ответ",
    "address": "",
    "phone": "+7 812 5848612",
    "lat": 59.9247431,
    "lon": 30.4964403
  },
  {
    "id": 1386494571,
    "name": "Вега",
    "address": "",
    "phone": "",
    "lat": 59.9477291,
    "lon": 30.490548
  },
  {
    "id": 1404379824,
    "name": "ВетКлиника",
    "address": "",
    "phone": "",
    "lat": 59.9855987,
    "lon": 30.3497724
  },
  {
    "id": 1409056976,
    "name": "4 лапы",
    "address": "",
    "phone": "",
    "lat": 59.9612870,
    "lon": 30.4524042
  },
  {
    "id": 1412811774,
    "name": "Ветеринарный центр доктора Бурлакова",
    "address": "",
    "phone": "",
    "lat": 59.8523150,
    "lon": 30.3816431
  },
  {
    "id": 1415488262,
    "name": "ВетКлиника",
    "address": "",
    "phone": "",
    "lat": 59.9936890,
    "lon": 30.310318
  },
  {
    "id": 1455186209,
    "name": "Гард",
    "address": "",
    "phone": "",
    "lat": 59.9984880,
    "lon": 29.768138
  },
  {
    "id": 1458413765,
    "name": "АльмаВет",
    "address": "",
    "phone": "",
    "lat": 59.8674080,
    "lon": 30.4275967
  },
  {
    "id": 1553917691,
    "name": "ВетЛюкс",
    "address": "",
    "phone": "",
    "lat": 59.9134748,
    "lon": 30.3122947
  },
  {
    "id": 1655575002,
    "name": "Элвет",
    "address": "",
    "phone": "",
    "lat": 59.8409406,
    "lon": 30.3399017
  },
  {
    "id": 1667579196,
    "name": "Ветеринарная клиника и аптека",
    "address": "",
    "phone": "",
    "lat": 59.9942940,
    "lon": 30.377749
  },
  {
    "id": 1712940824,
    "name": "Ветеринарная клиника доктора Тиханина",
    "address": "",
    "phone": "",
    "lat": 60.0079868,
    "lon": 30.3251046
  },
  {
    "id": 1723780602,
    "name": "Вега",
    "address": "",
    "phone": "+7 812 4997776",
    "lat": 59.9166535,
    "lon": 30.4766125
  },
  {
    "id": 1766480803,
    "name": "Государственная ветеринарная станция Василеостровского района",
    "address": "17-я линия В.О.",
    "phone": "+7 812 3211485",
    "lat": 59.9442658,
    "lon": 30.2592146
  },
  {
    "id": 1776966490,
    "name": "ВетКлиника",
    "address": "",
    "phone": "",
    "lat": 59.8594120,
    "lon": 30.1996948
  },
  {
    "id": 2059691612,
    "name": "Друг",
    "address": "",
    "phone": "",
    "lat": 59.8602722,
    "lon": 30.2478225
  },
  {
    "id": 2179496694,
    "name": "Рувет",
    "address": "",
    "phone": "",
    "lat": 59.8353128,
    "lon": 30.4261195
  },
  {
    "id": 2304864869,
    "name": "Барсель",
    "address": "",
    "phone": "",
    "lat": 59.9544062,
    "lon": 30.2920539
  },
  {
    "id": 2304925851,
    "name": "Ветеринарная клиника Сотникова",
    "address": "",
    "phone": "+78125096008",
    "lat": 59.8450055,
    "lon": 30.2715684
  },
  {
    "id": 2311379108,
    "name": "Зооторг",
    "address": "",
    "phone": "",
    "lat": 59.8484138,
    "lon": 30.2567223
  },
  {
    "id": 2334206900,
    "name": "лечебница",
    "address": "",
    "phone": "",
    "lat": 59.9136325,
    "lon": 29.7757988
  },
  {
    "id": 1840262707,
    "name": "ВетКлиника",
    "address": "",
    "phone": "",
    "lat": 60.0264210,
    "lon": 30.3288832
  },
  {
    "id": 2352571104,
    "name": "ВетКлиника",
    "address": "",
    "phone": "",
    "lat": 59.8712669,
    "lon": 30.3117179
  },
  {
    "id": 2357494017,
    "name": "Энимал Центр",
    "address": "",
    "phone": "+7 812 9956943",
    "lat": 59.9701991,
    "lon": 30.2486556
  },
  {
    "id": 2360254863,
    "name": "VdVet.ru",
    "address": "",
    "phone": "",
    "lat": 60.0019364,
    "lon": 30.2797175
  },
  {
    "id": 2367114129,
    "name": "Зоосалон",
    "address": "",
    "phone": "",
    "lat": 60.0233152,
    "lon": 30.2875187
  },
  {
    "id": 2371596965,
    "name": "Ветеринарная клиника",
    "address": "",
    "phone": "",
    "lat": 60.0169292,
    "lon": 30.229509
  },
  {
    "id": 2385534516,
    "name": "Ветеринарная клиника",
    "address": "",
    "phone": "",
    "lat": 59.9872573,
    "lon": 30.2190521
  },
  {
    "id": 2390816183,
    "name": "ВетКлиника",
    "address": "",
    "phone": "",
    "lat": 60.0484138,
    "lon": 30.3333218
  },
  {
    "id": 2401121168,
    "name": "Ветеринарная поликлиника",
    "address": "",
    "phone": "",
    "lat": 59.9239785,
    "lon": 30.3599385
  },
  {
    "id": 2453125502,
    "name": "Эрли",
    "address": "",
    "phone": "",
    "lat": 59.8511617,
    "lon": 30.1826769
  },
  {
    "id": 2461338910,
    "name": "Городской лечебно-диагностический ветеринарный центр №1",
    "address": "",
    "phone": "",
    "lat": 59.8658209,
    "lon": 30.3801026
  },
  {
    "id": 2519130210,
    "name": "Ветеринарная клиника",
    "address": "",
    "phone": "",
    "lat": 59.8958901,
    "lon": 30.4907792
  },
  {
    "id": 2617376852,
    "name": "Институт ветеринарной биологии, ветеринарный ценр",
    "address": "Ораниенбаумская улица",
    "phone": "+78122325592",
    "lat": 59.9600860,
    "lon": 30.3005828
  },
  {
    "id": 2636063603,
    "name": "Ветеринарный госпиталь",
    "address": "",
    "phone": "",
    "lat": 59.9381561,
    "lon": 30.3372933
  },
  {
    "id": 2725453646,
    "name": "VetLife",
    "address": "",
    "phone": "+7 812 3828675",
    "lat": 59.8418925,
    "lon": 30.351185
  },
  {
    "id": 3025833633,
    "name": "Ветклиника",
    "address": "",
    "phone": "",
    "lat": 59.8381741,
    "lon": 30.3689358
  },
  {
    "id": 3049504688,
    "name": "ВетКлиника",
    "address": "",
    "phone": "",
    "lat": 60.0370111,
    "lon": 30.4060662
  },
  {
    "id": 3083080239,
    "name": "Ветеринарная клиника",
    "address": "",
    "phone": "",
    "lat": 59.8750275,
    "lon": 29.8638118
  },
  {
    "id": 3110862874,
    "name": "Прайд",
    "address": "",
    "phone": "+7 812 501-27-55",
    "lat": 60.0102028,
    "lon": 30.2639189
  },
  {
    "id": 3135605191,
    "name": "ВетЛюкс",
    "address": "",
    "phone": "",
    "lat": 59.8640382,
    "lon": 30.3264731
  },
  {
    "id": 3273543443,
    "name": "Лаки",
    "address": "",
    "phone": "",
    "lat": 60.0333672,
    "lon": 30.3998243
  },
  {
    "id": 3294363404,
    "name": "ВетКлиника",
    "address": "",
    "phone": "+7 812 3649152",
    "lat": 59.8520017,
    "lon": 30.3543523
  },
  {
    "id": 3304332092,
    "name": "Ветклиника ООО \"Поливет\"",
    "address": "",
    "phone": "",
    "lat": 60.0351489,
    "lon": 30.375579
  },
  {
    "id": 3350514545,
    "name": "Зоомир",
    "address": "",
    "phone": "",
    "lat": 60.0330344,
    "lon": 30.4296813
  },
  {
    "id": 3530257052,
    "name": "Пет Приоритет",
    "address": "улица Фёдора Абрамова",
    "phone": "",
    "lat": 60.0705362,
    "lon": 30.3345585
  },
  {
    "id": 3655480093,
    "name": "Центр ветеринарной медицины",
    "address": "",
    "phone": "",
    "lat": 60.0193266,
    "lon": 30.3772256
  },
  {
    "id": 3710093803,
    "name": "ВетКлиника",
    "address": "",
    "phone": "",
    "lat": 60.0376488,
    "lon": 30.4306882
  },
  {
    "id": 3725365560,
    "name": "СитиВет",
    "address": "Софийская улица",
    "phone": "+7 812 7150562",
    "lat": 59.8697692,
    "lon": 30.4116498
  },
  {
    "id": 3729942132,
    "name": "Домашний любимец",
    "address": "",
    "phone": "+7 911 2337725",
    "lat": 59.7179159,
    "lon": 30.4077627
  },
  {
    "id": 3829333562,
    "name": "ВетКлиника",
    "address": "",
    "phone": "",
    "lat": 59.9465678,
    "lon": 30.4914015
  },
  {
    "id": 3837992969,
    "name": "Pro Plan",
    "address": "",
    "phone": "",
    "lat": 60.0391659,
    "lon": 30.3209314
  },
  {
    "id": 3864884060,
    "name": "Веста",
    "address": "",
    "phone": "+7 812 9621920",
    "lat": 59.8562005,
    "lon": 30.2095108
  },
  {
    "id": 3906102880,
    "name": "Ветеринарная аптека",
    "address": "",
    "phone": "",
    "lat": 59.9404639,
    "lon": 30.2643795
  },
  {
    "id": 4032118435,
    "name": "Чеширский Кот",
    "address": "",
    "phone": "",
    "lat": 59.8413926,
    "lon": 30.1732598
  },
  {
    "id": 4119102055,
    "name": "Аптека",
    "address": "",
    "phone": "",
    "lat": 59.7290496,
    "lon": 30.0826396
  },
  {
    "id": 4128492807,
    "name": "Vitaland",
    "address": "",
    "phone": "",
    "lat": 59.8335388,
    "lon": 30.3147459
  },
  {
    "id": 4131170890,
    "name": "Ветеринарная клиника имени Айвэна Филлмора",
    "address": "проспект Энгельса",
    "phone": "+7 812 3353382",
    "lat": 60.0595814,
    "lon": 30.3328603
  },
  {
    "id": 4186236008,
    "name": "Собачья жизнь",
    "address": "",
    "phone": "+7 812 3095475",
    "lat": 59.9453105,
    "lon": 30.3783218
  },
  {
    "id": 4225071996,
    "name": "Ветпомощь",
    "address": "",
    "phone": "",
    "lat": 59.9011885,
    "lon": 30.465125
  },
  {
    "id": 4225580700,
    "name": "ДогСити",
    "address": "улица Подвойского",
    "phone": "+7 812 6433989",
    "lat": 59.9194667,
    "lon": 30.5000249
  },
  {
    "id": 4241338517,
    "name": "Ветеринарная клиника Сотникова",
    "address": "",
    "phone": "",
    "lat": 60.0233589,
    "lon": 30.2840881
  },
  {
    "id": 4241368107,
    "name": "Поиск",
    "address": "",
    "phone": "+7 812 6704114",
    "lat": 60.0237947,
    "lon": 30.284461
  },
  {
    "id": 4325714496,
    "name": "Felis",
    "address": "",
    "phone": "",
    "lat": 59.9535555,
    "lon": 30.4774535
  },
  {
    "id": 4361866593,
    "name": "ВетКлиника",
    "address": "",
    "phone": "",
    "lat": 60.0907999,
    "lon": 29.9484055
  },
  {
    "id": 4367175702,
    "name": "Артис",
    "address": "",
    "phone": "",
    "lat": 59.8523902,
    "lon": 30.3621587
  },
  {
    "id": 4375192518,
    "name": "ВетКлиника",
    "address": "",
    "phone": "",
    "lat": 59.7349380,
    "lon": 30.5626776
  },
  {
    "id": 4382857489,
    "name": "Ветус",
    "address": "",
    "phone": "",
    "lat": 60.0508893,
    "lon": 30.3407721
  },
  {
    "id": 4395472289,
    "name": "Кот и Пёс",
    "address": "",
    "phone": "+7 812 3555086",
    "lat": 59.9458124,
    "lon": 30.2172476
  },
  {
    "id": 4395472389,
    "name": "Кот и Пёс",
    "address": "",
    "phone": "+7 812 3052121",
    "lat": 59.9447530,
    "lon": 30.2367805
  },
  {
    "id": 4396949089,
    "name": "Векта",
    "address": "",
    "phone": "+7 812 2691413",
    "lat": 59.8737805,
    "lon": 30.383395
  },
  {
    "id": 4416893090,
    "name": "Ягуар",
    "address": "",
    "phone": "",
    "lat": 59.8596078,
    "lon": 30.3508619
  },
  {
    "id": 4427090413,
    "name": "ВетАльянс",
    "address": "",
    "phone": "",
    "lat": 59.9236372,
    "lon": 30.2910294
  },
  {
    "id": 4459987489,
    "name": "Ветклиника доктора А.Н. Ефимова",
    "address": "",
    "phone": "",
    "lat": 59.9110619,
    "lon": 30.2882184
  },
  {
    "id": 4460146297,
    "name": "ВетСеть",
    "address": "улица Зайцева",
    "phone": "",
    "lat": 59.8699067,
    "lon": 30.2622361
  },
  {
    "id": 4479505792,
    "name": "Domvet",
    "address": "",
    "phone": "+7 812 7010416",
    "lat": 59.8497065,
    "lon": 30.3154629
  },
  {
    "id": 4536447125,
    "name": "Ветцентр клуба служебного собаководства",
    "address": "",
    "phone": "+7 812 5719204",
    "lat": 59.9245869,
    "lon": 30.3056424
  },
  {
    "id": 4570042551,
    "name": "Парголовская участковая ветеринарная лечебница",
    "address": "улица Ломоносова",
    "phone": "+7 812 5948778",
    "lat": 60.0806114,
    "lon": 30.2671396
  },
  {
    "id": 4577438313,
    "name": "Зоосервис",
    "address": "",
    "phone": "+7 812 4443469",
    "lat": 59.9225269,
    "lon": 30.4208345
  },
  {
    "id": 4577707393,
    "name": "Ситивет",
    "address": "",
    "phone": "",
    "lat": 60.0286284,
    "lon": 30.4060218
  },
  {
    "id": 4619168592,
    "name": "Котонай",
    "address": "",
    "phone": "+7 812 4246173",
    "lat": 59.8471918,
    "lon": 30.3055882
  },
  {
    "id": 4702342125,
    "name": "Медея",
    "address": "",
    "phone": "+7 812 9254805",
    "lat": 59.8269660,
    "lon": 30.3269453
  },
  {
    "id": 4745383221,
    "name": "Котонай",
    "address": "",
    "phone": "+78122109855",
    "lat": 59.8535159,
    "lon": 30.3835909
  },
  {
    "id": 4745873721,
    "name": "Толстый Лори",
    "address": "",
    "phone": "+7 812 7080072",
    "lat": 59.9851641,
    "lon": 30.4238284
  },
  {
    "id": 4854920322,
    "name": "Ветеринарная клиника Натальи Чернышевской",
    "address": "",
    "phone": "",
    "lat": 59.9023058,
    "lon": 30.2718119
  },
  {
    "id": 4882557821,
    "name": "Мурка",
    "address": "улица Бутлерова",
    "phone": "+7 (921) 981 20 19",
    "lat": 60.0092099,
    "lon": 30.4055734
  },
  {
    "id": 4911475364,
    "name": "Лname",
    "address": "",
    "phone": "",
    "lat": 59.9214879,
    "lon": 30.3527382
  },
  {
    "id": 4944073122,
    "name": "Ветеринарная клиника доктора Гиль",
    "address": "",
    "phone": "+7 812 9043112",
    "lat": 59.9721592,
    "lon": 30.4357334
  },
  {
    "id": 5100889322,
    "name": "Молли",
    "address": "",
    "phone": "",
    "lat": 59.9420503,
    "lon": 30.2118276
  },
  {
    "id": 5116165687,
    "name": "Ветеринарная станция Адмиралтейского района",
    "address": "",
    "phone": "",
    "lat": 59.9259039,
    "lon": 30.3051144
  },
  {
    "id": 5147594166,
    "name": "Доктор Неболит",
    "address": "проспект Науки",
    "phone": "+7 812 9030355",
    "lat": 60.0042648,
    "lon": 30.4290433
  },
  {
    "id": 5248325624,
    "name": "Элвет",
    "address": "",
    "phone": "",
    "lat": 59.8832867,
    "lon": 30.4678086
  },
  {
    "id": 5303299220,
    "name": "Зоосалон",
    "address": "",
    "phone": "",
    "lat": 59.9879780,
    "lon": 30.2136197
  },
  {
    "id": 5357157106,
    "name": "Вирион",
    "address": "",
    "phone": "+78126791145",
    "lat": 59.8610559,
    "lon": 30.3033333
  },
  {
    "id": 5484158223,
    "name": "Алname",
    "address": "",
    "phone": "",
    "lat": 59.8592360,
    "lon": 30.2250285
  },
  {
    "id": 5543853026,
    "name": "Питомец",
    "address": "",
    "phone": "+7 812 9469141",
    "lat": 59.8639517,
    "lon": 30.372171
  },
  {
    "id": 5611122228,
    "name": "ВетКлиника",
    "address": "",
    "phone": "",
    "lat": 59.8944650,
    "lon": 30.3248131
  },
  {
    "id": 5728530716,
    "name": "Ветеринарная станция",
    "address": "",
    "phone": "+7 812 2346848",
    "lat": 59.9729447,
    "lon": 30.3006382
  },
  {
    "id": 5730901406,
    "name": "Лахта",
    "address": "Шуваловский проспект",
    "phone": "",
    "lat": 60.0052044,
    "lon": 30.1974075
  },
  {
    "id": 5764016655,
    "name": "Госпиталь птиц «Зеленый попугай»",
    "address": "",
    "phone": "+7 921 3827297",
    "lat": 59.9325650,
    "lon": 30.2411073
  },
  {
    "id": 5779283159,
    "name": "ВетКлиника",
    "address": "улица Трефолева",
    "phone": "",
    "lat": 59.8910515,
    "lon": 30.270177
  },
  {
    "id": 5891730576,
    "name": "Indigo",
    "address": "",
    "phone": "",
    "lat": 59.8339746,
    "lon": 30.4002649
  },
  {
    "id": 5893123268,
    "name": "Viva Vet",
    "address": "",
    "phone": "",
    "lat": 59.9332167,
    "lon": 30.3044207
  },
  {
    "id": 5983432585,
    "name": "Эрли",
    "address": "",
    "phone": "",
    "lat": 59.8272302,
    "lon": 30.1408542
  },
  {
    "id": 6271171211,
    "name": "Паучок",
    "address": "",
    "phone": "+7 952 2695750",
    "lat": 59.8737757,
    "lon": 30.3847033
  },
  {
    "id": 6284223390,
    "name": "Ленвет",
    "address": "",
    "phone": "",
    "lat": 59.9991640,
    "lon": 30.2075093
  },
  {
    "id": 6284223399,
    "name": "Ветеринарная клиника",
    "address": "",
    "phone": "",
    "lat": 59.9984990,
    "lon": 30.2054606
  },
  {
    "id": 6314943186,
    "name": "Три кота",
    "address": "",
    "phone": "",
    "lat": 59.9411853,
    "lon": 30.3644764
  },
  {
    "id": 6404015585,
    "name": "Айболит-99",
    "address": "",
    "phone": "",
    "lat": 59.7401335,
    "lon": 30.4775977
  },
  {
    "id": 6516427266,
    "name": "Зодиак+",
    "address": "",
    "phone": "",
    "lat": 59.9579343,
    "lon": 30.2940068
  },
  {
    "id": 6519199689,
    "name": "Happy pets",
    "address": "проспект Королёва",
    "phone": "+7 812 6057880",
    "lat": 60.0332197,
    "lon": 30.2417176
  },
  {
    "id": 6746266643,
    "name": "Котонай",
    "address": "",
    "phone": "",
    "lat": 59.8531269,
    "lon": 30.1916347
  },
  {
    "id": 6881451921,
    "name": "МиМи",
    "address": "",
    "phone": "+7 812 9802497",
    "lat": 60.0320644,
    "lon": 30.1417228
  },
  {
    "id": 7042668486,
    "name": "Зоопарк",
    "address": "",
    "phone": "+7 812 2326983",
    "lat": 59.9501655,
    "lon": 30.3075099
  },
  {
    "id": 7160460731,
    "name": "ТрастВет",
    "address": "Мебельная улица",
    "phone": "+7-812-507-90-87",
    "lat": 59.9937392,
    "lon": 30.1938737
  },
  {
    "id": 7195985849,
    "name": "Артис",
    "address": "",
    "phone": "",
    "lat": 59.8508290,
    "lon": 30.393956
  },
  {
    "id": 7394640173,
    "name": "FoxVet",
    "address": "",
    "phone": "+7 904 6003003",
    "lat": 60.0140290,
    "lon": 30.0104025
  },
  {
    "id": 7417333522,
    "name": "ВетКлиника",
    "address": "",
    "phone": "+78124493229",
    "lat": 59.9907788,
    "lon": 30.21805
  },
  {
    "id": 7560563126,
    "name": "Мокрый нос",
    "address": "улица Станюковича",
    "phone": "+78124143314",
    "lat": 60.0095596,
    "lon": 29.7235737
  },
  {
    "id": 7580415565,
    "name": "Ветеринарный центр доктора Базылевского",
    "address": "",
    "phone": "",
    "lat": 59.8486314,
    "lon": 30.1501451
  },
  {
    "id": 7637530585,
    "name": "Красный лис",
    "address": "улица Академика Шиманского",
    "phone": "",
    "lat": 59.9859867,
    "lon": 30.2873069
  },
  {
    "id": 7744329881,
    "name": "АльтерВет",
    "address": "проспект Художников",
    "phone": "",
    "lat": 60.0360988,
    "lon": 30.3461856
  },
  {
    "id": 7744396660,
    "name": "Ирбис",
    "address": "",
    "phone": "",
    "lat": 60.0426008,
    "lon": 30.3826207
  },
  {
    "id": 7744574349,
    "name": "Ветостров",
    "address": "улица Фёдора Абрамова",
    "phone": "+7 812 6789858",
    "lat": 60.0774451,
    "lon": 30.3450027
  },
  {
    "id": 7840241870,
    "name": "Моя зверюшка",
    "address": "",
    "phone": "",
    "lat": 60.0029128,
    "lon": 30.35723
  },
  {
    "id": 8047170816,
    "name": "ВетКлиника",
    "address": "",
    "phone": "",
    "lat": 59.8454792,
    "lon": 30.3793004
  },
  {
    "id": 8237601271,
    "name": "Правобережный ветеринарный участок",
    "address": "",
    "phone": "",
    "lat": 59.9116766,
    "lon": 30.4992083
  },
  {
    "id": 8521189947,
    "name": "Атмосфname",
    "address": "",
    "phone": "",
    "lat": 60.0723953,
    "lon": 30.2386746
  },
  {
    "id": 8521189976,
    "name": "Биокор",
    "address": "",
    "phone": "",
    "lat": 59.8732165,
    "lon": 30.4473129
  },
  {
    "id": 8677000085,
    "name": "name",
    "address": "",
    "phone": "",
    "lat": 59.9448849,
    "lon": 30.2836687
  },
  {
    "id": 8818560154,
    "name": "Никавет",
    "address": "",
    "phone": "",
    "lat": 59.8448189,
    "lon": 30.3239297
  },
  {
    "id": 8833183278,
    "name": "ВетКлиника",
    "address": "",
    "phone": "",
    "lat": 59.8557183,
    "lon": 30.3523913
  },
  {
    "id": 8833238488,
    "name": "ВетКлиника",
    "address": "",
    "phone": "",
    "lat": 59.8596689,
    "lon": 30.3507531
  },
  {
    "id": 8839210862,
    "name": "Дори",
    "address": "Будапештская улица",
    "phone": "+7 931 956-65-66",
    "lat": 59.8682656,
    "lon": 30.3676665
  },
  {
    "id": 8855134481,
    "name": "Ветцентр",
    "address": "",
    "phone": "",
    "lat": 59.8246092,
    "lon": 30.3372743
  },
  {
    "id": 8855166520,
    "name": "Red Vet",
    "address": "",
    "phone": "",
    "lat": 59.8979693,
    "lon": 30.3074079
  },
  {
    "id": 9213688498,
    "name": "Здоровые животные",
    "address": "",
    "phone": "",
    "lat": 60.0238479,
    "lon": 30.2499411
  },
  {
    "id": 9443090985,
    "name": "Ветеринарная клиника доктора Сотникова",
    "address": "",
    "phone": "",
    "lat": 59.8449813,
    "lon": 30.4082983
  },
  {
    "id": 9443091118,
    "name": "Ветеринарная клиника Сотникова",
    "address": "",
    "phone": "",
    "lat": 59.8487706,
    "lon": 30.279635
  },
  {
    "id": 9709052548,
    "name": "Ветаптека",
    "address": "",
    "phone": "",
    "lat": 59.9420585,
    "lon": 30.4784496
  },
  {
    "id": 9709079329,
    "name": "Ветаптека",
    "address": "",
    "phone": "",
    "lat": 59.9437391,
    "lon": 30.4793359
  },
  {
    "id": 9786787008,
    "name": "Рыжий пес",
    "address": "",
    "phone": "",
    "lat": 59.9529856,
    "lon": 30.2117841
  },
  {
    "id": 9799429754,
    "name": "Ветлекарь",
    "address": "",
    "phone": "",
    "lat": 59.9536688,
    "lon": 30.2904613
  },
  {
    "id": 9860617620,
    "name": "АмикаВет",
    "address": "Сетевая улица",
    "phone": "+7 812 4093959",
    "lat": 59.7310211,
    "lon": 30.4551682
  },
  {
    "id": 9973892794,
    "name": "Зоосфера",
    "address": "Богатырский проспект",
    "phone": "+7 812 959-56-83",
    "lat": 60.0031111,
    "lon": 30.236369
  },
  {
    "id": 10113987885,
    "name": "Ветклиника",
    "address": "",
    "phone": "",
    "lat": 59.8556255,
    "lon": 30.3037602
  },
  {
    "id": 10169522319,
    "name": "Четыре лапы",
    "address": "",
    "phone": "+78123368267",
    "lat": 60.0423618,
    "lon": 30.3903651
  },
  {
    "id": 10594184078,
    "name": "Ветеринарный центр доктора Базылевского",
    "address": "",
    "phone": "",
    "lat": 59.8325928,
    "lon": 30.197714
  },
  {
    "id": 10599735860,
    "name": "Ветаптека",
    "address": "проспект Луначарского",
    "phone": "+7 812 249-49-49",
    "lat": 60.0419403,
    "lon": 30.3409861
  },
  {
    "id": 10601320213,
    "name": "Зооген",
    "address": "",
    "phone": "",
    "lat": 60.0005928,
    "lon": 30.3249209
  },
  {
    "id": 10614195717,
    "name": "СитиВет",
    "address": "проспект Просвещения",
    "phone": "",
    "lat": 60.0558122,
    "lon": 30.3234538
  },
  {
    "id": 10653539751,
    "name": "Дай Лапу",
    "address": "Богатырский проспект",
    "phone": "+7 812 407-22-15",
    "lat": 60.0023293,
    "lon": 30.2513129
  },
  {
    "id": 10671142901,
    "name": "Panameravet",
    "address": "Северный проспект",
    "phone": "+7 812 299-04-96",
    "lat": 60.0330305,
    "lon": 30.352861
  },
  {
    "id": 10717307269,
    "name": "Барсель",
    "address": "",
    "phone": "",
    "lat": 59.9562846,
    "lon": 30.2941328
  },
  {
    "id": 10760781678,
    "name": "Чистое Сердце",
    "address": "",
    "phone": "+7 812 4535965",
    "lat": 59.8269433,
    "lon": 30.398712
  },
  {
    "id": 10772839201,
    "name": "Клиника кошек",
    "address": "",
    "phone": "",
    "lat": 59.9995563,
    "lon": 30.2101929
  },
  {
    "id": 10844067719,
    "name": "Белый лис",
    "address": "",
    "phone": "",
    "lat": 60.0819819,
    "lon": 30.3381658
  },
  {
    "id": 10844067756,
    "name": "Свой доктор",
    "address": "",
    "phone": "",
    "lat": 59.9006723,
    "lon": 30.4556829
  },
  {
    "id": 10860037599,
    "name": "Ветеринарный Центр СПбГУВМ",
    "address": "",
    "phone": "",
    "lat": 59.8279183,
    "lon": 30.389286
  },
  {
    "id": 10936216386,
    "name": "Ветеринарный центр доктора Котова",
    "address": "",
    "phone": "",
    "lat": 60.0426445,
    "lon": 30.2400274
  },
  {
    "id": 11037396467,
    "name": "Ветеринарный центр доктора Базылевского",
    "address": "",
    "phone": "",
    "lat": 59.9643183,
    "lon": 30.3813897
  },
  {
    "id": 11037762906,
    "name": "Ветеринарная клиника",
    "address": "",
    "phone": "+78129816670",
    "lat": 59.9126120,
    "lon": 29.7772264
  },
  {
    "id": 11099887539,
    "name": "ВетКлиника",
    "address": "",
    "phone": "",
    "lat": 59.9527877,
    "lon": 30.4822406
  },
  {
    "id": 11104673374,
    "name": "Лешка-Тошка",
    "address": "",
    "phone": "",
    "lat": 59.8214610,
    "lon": 30.331467
  },
  {
    "id": 11104674888,
    "name": "Ветус",
    "address": "",
    "phone": "",
    "lat": 60.0549402,
    "lon": 30.3115388
  },
  {
    "id": 11114809965,
    "name": "Ветлекарь",
    "address": "",
    "phone": "",
    "lat": 59.9404864,
    "lon": 30.2656496
  },
  {
    "id": 11149640746,
    "name": "Ветаптека",
    "address": "",
    "phone": "",
    "lat": 59.8413657,
    "lon": 30.251779
  },
  {
    "id": 11152426723,
    "name": "Багира",
    "address": "",
    "phone": "",
    "lat": 59.7476925,
    "lon": 30.5678987
  },
  {
    "id": 11181656295,
    "name": "Два слона",
    "address": "",
    "phone": "",
    "lat": 59.9511703,
    "lon": 30.2471353
  },
  {
    "id": 11279291036,
    "name": "И ёж с нами",
    "address": "",
    "phone": "",
    "lat": 59.8470176,
    "lon": 30.4158396
  },
  {
    "id": 11281749981,
    "name": "Вега",
    "address": "",
    "phone": "",
    "lat": 59.8603096,
    "lon": 30.2481443
  },
  {
    "id": 11284331576,
    "name": "ВераВет",
    "address": "",
    "phone": "",
    "lat": 59.9528428,
    "lon": 30.2966845
  },
  {
    "id": 11348428837,
    "name": "Дори",
    "address": "",
    "phone": "",
    "lat": 59.9033252,
    "lon": 30.3107891
  },
  {
    "id": 11397782828,
    "name": "Клиника доктора Сотникова",
    "address": "",
    "phone": "",
    "lat": 60.0267094,
    "lon": 30.2757293
  },
  {
    "id": 11434933849,
    "name": "ВетКлиника",
    "address": "",
    "phone": "",
    "lat": 59.9134533,
    "lon": 30.3273923
  },
  {
    "id": 11693031169,
    "name": "Косточка",
    "address": "",
    "phone": "+7 812 4590700",
    "lat": 59.9194251,
    "lon": 30.3698107
  },
  {
    "id": 11991900333,
    "name": "Плуто",
    "address": "",
    "phone": "",
    "lat": 59.8614321,
    "lon": 30.1924788
  },
  {
    "id": 12022776271,
    "name": "ТвойКусь",
    "address": "",
    "phone": "+79956255095",
    "lat": 60.0546130,
    "lon": 30.267239
  },
  {
    "id": 12031759270,
    "name": "Ветеринарная клиника доктора Сотникова",
    "address": "",
    "phone": "+7 (812) 509-60-07",
    "lat": 59.6941628,
    "lon": 30.4286217
  },
  {
    "id": 12047882178,
    "name": "Олианвет",
    "address": "",
    "phone": "",
    "lat": 59.6835003,
    "lon": 30.4402312
  },
  {
    "id": 12180089989,
    "name": "РассВет",
    "address": "",
    "phone": "",
    "lat": 59.9070455,
    "lon": 30.3484302
  },
  {
    "id": 12236400698,
    "name": "Володарский ветеринарный участок",
    "address": "",
    "phone": "",
    "lat": 59.8349059,
    "lon": 30.0931849
  },
  {
    "id": 12323769450,
    "name": "Первая Ветаптека",
    "address": "",
    "phone": "",
    "lat": 59.9067708,
    "lon": 30.4810524
  },
  {
    "id": 12404666301,
    "name": "Вместе",
    "address": "",
    "phone": "",
    "lat": 59.9243736,
    "lon": 30.2790063
  },
  {
    "id": 12565914298,
    "name": "Многопрофильный ветеринарный госпиталь Прайд",
    "address": "",
    "phone": "+78126792978",
    "lat": 59.9637808,
    "lon": 30.3651582
  },
  {
    "id": 12649979326,
    "name": "ВетКлиника",
    "address": "",
    "phone": "",
    "lat": 59.7365043,
    "lon": 30.6176872
  },
  {
    "id": 12657784092,
    "name": "Манул",
    "address": "",
    "phone": "+78127778001",
    "lat": 59.7383503,
    "lon": 30.4162818
  },
  {
    "id": 12694086465,
    "name": "Челси",
    "address": "",
    "phone": "",
    "lat": 60.0159552,
    "lon": 30.2854066
  },
  {
    "id": 12879082338,
    "name": "Жизель",
    "address": "",
    "phone": "",
    "lat": 59.7333446,
    "lon": 30.5769461
  }
]